{
"type": "FeatureCollection",
"name": "Private_Schools",
"crs": { "type": "name", "properties": { "name": "urn:ogc:def:crs:OGC:1.3:CRS84" } },
"features": [
{ "type": "Feature", "properties": { "OBJECTID": 1, "NAME": "Academy for Precision Learning", "ADDRESS": "5031 University Way NE #105", "PHONE": "206.427.0115", "WEBSITE": "www.aplschool.org", "GRADE": "K-12", "CITY": "Seattle", "ZIP": "98105" }, "geometry": { "type": "Point", "coordinates": [ -122.313683917929026, 47.66567842087418 ] } },
{ "type": "Feature", "properties": { "OBJECTID": 2, "NAME": "Assumption-St. Bridget School", "ADDRESS": "6220 32nd Ave NE", "PHONE": "206-524-7452", "WEBSITE": "www.asbschool.org", "GRADE": "P-8", "CITY": "Seattle", "ZIP": "98115-7233" }, "geometry": { "type": "Point", "coordinates": [ -122.292838951378741, 47.674853239223104 ] } },
{ "type": "Feature", "properties": { "OBJECTID": 3, "NAME": "Bertschi School", "ADDRESS": "2227 10th Avenue E", "PHONE": "206 324 5476", "WEBSITE": "bertschi.org", "GRADE": "P-5", "CITY": "Seattle", "ZIP": "98102" }, "geometry": { "type": "Point", "coordinates": [ -122.320348684657858, 47.639315822140759 ] } },
{ "type": "Feature", "properties": { "OBJECTID": 4, "NAME": "Billings Middle School", "ADDRESS": "7217 Woodlawn Ave NE", "PHONE": "206-547-4614", "WEBSITE": "www.billingsmiddleschool.org", "GRADE": "6-8", "CITY": "Seattle", "ZIP": "98115" }, "geometry": { "type": "Point", "coordinates": [ -122.325123365475662, 47.680857528183083 ] } },
{ "type": "Feature", "properties": { "OBJECTID": 5, "NAME": "Bishop Blanchet High School", "ADDRESS": "8200 Wallingford Ave N.", "PHONE": "206-527-7711", "WEBSITE": "www.bishopblanchet.org", "GRADE": "9-12", "CITY": "Seattle", "ZIP": "98103" }, "geometry": { "type": "Point", "coordinates": [ -122.335525914628079, 47.688910581154943 ] } },
{ "type": "Feature", "properties": { "OBJECTID": 6, "NAME": "Bright Water Waldorf School", "ADDRESS": "1501 10th Ave E Suite 100", "PHONE": "206.624.6176", "WEBSITE": "www.brightwaterwaldorf.org", "GRADE": "P-8", "CITY": "Seattle", "ZIP": "98102" }, "geometry": { "type": "Point", "coordinates": [ -122.320722245107262, 47.632387597915574 ] } },
{ "type": "Feature", "properties": { "OBJECTID": 7, "NAME": "Brightmont Academy Seattle", "ADDRESS": "9750 3rd Ave NE, Suite 102", "PHONE": "206-284-2300", "WEBSITE": "www.brightmontacademy.com", "GRADE": "6-12", "CITY": "Seattle", "ZIP": "98115" }, "geometry": { "type": "Point", "coordinates": [ -122.324865742168214, 47.700629743261224 ] } },
{ "type": "Feature", "properties": { "OBJECTID": 8, "NAME": "Christ the King School", "ADDRESS": "415 N 117th St", "PHONE": "206-364-6890", "WEBSITE": "https:\/\/school.ckseattle.org\/", "GRADE": "P-8", "CITY": "Seattle", "ZIP": "98133" }, "geometry": { "type": "Point", "coordinates": [ -122.353499940010892, 47.71387447659572 ] } },
{ "type": "Feature", "properties": { "OBJECTID": 9, "NAME": "Concordia Lutheran School", "ADDRESS": "7040 36th Ave NE", "PHONE": "2065257407", "WEBSITE": "concordiaseattle.com", "GRADE": "P-6", "CITY": "Seattle", "ZIP": "98115" }, "geometry": { "type": "Point", "coordinates": [ -122.289047542608245, 47.68072946726177 ] } },
{ "type": "Feature", "properties": { "OBJECTID": 10, "NAME": "Concordia Lutheran School", "ADDRESS": "12509 27th Ave NE", "PHONE": "2065257407", "WEBSITE": "concordiaseattle.com", "GRADE": "P-6", "CITY": "Seattle", "ZIP": "98125" }, "geometry": { "type": "Point", "coordinates": [ -122.29971402523438, 47.719641399057117 ] } },
{ "type": "Feature", "properties": { "OBJECTID": 11, "NAME": "Dartmoor School", "ADDRESS": "9622 Roosevelt Way NE", "PHONE": "425-885-6296", "WEBSITE": "www.dartmoorschool.org", "GRADE": "1-12", "CITY": "Seattle", "ZIP": "98115" }, "geometry": { "type": "Point", "coordinates": [ -122.317222343245618, 47.699165583402497 ] } },
{ "type": "Feature", "properties": { "OBJECTID": 12, "NAME": "Derech Emunah Seattle Jewish Girls High School", "ADDRESS": "5142 South Holly Street", "PHONE": "2064026621", "WEBSITE": "https:\/\/derechemunah.com\/", "GRADE": "9-12", "CITY": "Seattle", "ZIP": "98118" }, "geometry": { "type": "Point", "coordinates": [ -122.268030994681268, 47.543098527643139 ] } },
{ "type": "Feature", "properties": { "OBJECTID": 13, "NAME": "Epiphany School", "ADDRESS": "3611 East Denny Way", "PHONE": "206-323-9011", "WEBSITE": "www.epiphanyschool.org", "GRADE": "P-5", "CITY": "Seattle", "ZIP": "98122" }, "geometry": { "type": "Point", "coordinates": [ -122.286757299312555, 47.61806725375132 ] } },
{ "type": "Feature", "properties": { "OBJECTID": 14, "NAME": "Explorer West Middle School", "ADDRESS": "10015 28th Ave SW", "PHONE": "206-935-0495", "WEBSITE": "explorer-west.org", "GRADE": "6-8", "CITY": "Seattle", "ZIP": "98146" }, "geometry": { "type": "Point", "coordinates": [ -122.369329621013236, 47.513201652516699 ] } },
{ "type": "Feature", "properties": { "OBJECTID": 15, "NAME": "Fairview Christian School", "ADDRESS": "844 NE 78th St", "PHONE": "206-526-0762", "WEBSITE": "fcsseattle.org", "GRADE": "K-8", "CITY": "Seattle", "ZIP": "98115" }, "geometry": { "type": "Point", "coordinates": [ -122.318493996808783, 47.685660251132667 ] } },
{ "type": "Feature", "properties": { "OBJECTID": 16, "NAME": "Fusion Academy Seattle", "ADDRESS": "214 E. Galer St, Suite 200", "PHONE": "206-486-3614", "WEBSITE": "www.fusionacademy.com", "GRADE": "6-12", "CITY": "Seattle", "ZIP": "98102" }, "geometry": { "type": "Point", "coordinates": [ -122.325288685166171, 47.632454177801705 ] } },
{ "type": "Feature", "properties": { "OBJECTID": 17, "NAME": "Giddens School", "ADDRESS": "620 20th Ave S", "PHONE": "206-324-4847", "WEBSITE": "www.giddensschool.org", "GRADE": "P-5", "CITY": "Seattle", "ZIP": "98144" }, "geometry": { "type": "Point", "coordinates": [ -122.306012015221484, 47.596919263190472 ] } },
{ "type": "Feature", "properties": { "OBJECTID": 18, "NAME": "Hamlin Robinson School", "ADDRESS": "1701 20th Ave S.", "PHONE": "206-763-1167", "WEBSITE": "hamlinrobinson.org", "GRADE": "1-8", "CITY": "Seattle", "ZIP": "98144" }, "geometry": { "type": "Point", "coordinates": [ -122.306496232741353, 47.588305639468146 ] } },
{ "type": "Feature", "properties": { "OBJECTID": 19, "NAME": "Holy Family Bilingual Catholic School", "ADDRESS": "9615 20th Ave SW", "PHONE": "2067676640", "WEBSITE": "holyfamilybilingual.org", "GRADE": "P-8", "CITY": "Seattle", "ZIP": "98106" }, "geometry": { "type": "Point", "coordinates": [ -122.359463950201615, 47.516975709709733 ] } },
{ "type": "Feature", "properties": { "OBJECTID": 20, "NAME": "Holy Names Academy", "ADDRESS": "728 21st Ave East", "PHONE": "(206) 323-4272", "WEBSITE": "https:\/\/www.holynames-sea.org\/", "GRADE": "9-12", "CITY": "Seattle", "ZIP": "98112" }, "geometry": { "type": "Point", "coordinates": [ -122.304294229002153, 47.62644390650857 ] } },
{ "type": "Feature", "properties": { "OBJECTID": 21, "NAME": "Holy Rosary School", "ADDRESS": "4142 42nd Ave SW", "PHONE": "206-937-7255", "WEBSITE": "www.holyrosaryws.org", "GRADE": "P-8", "CITY": "Seattle", "ZIP": "98116" }, "geometry": { "type": "Point", "coordinates": [ -122.385018082730312, 47.565421003259893 ] } },
{ "type": "Feature", "properties": { "OBJECTID": 22, "NAME": "Hope Academy", "ADDRESS": "9421 18th Ave SW", "PHONE": "206-438-1778", "WEBSITE": "Null", "GRADE": "K-8", "CITY": "Seattle", "ZIP": "98106" }, "geometry": { "type": "Point", "coordinates": [ -122.358244654694232, 47.518560411481211 ] } },
{ "type": "Feature", "properties": { "OBJECTID": 23, "NAME": "Hope Lutheran School", "ADDRESS": "4456 42nd Ave SW", "PHONE": "(206) 935-8500", "WEBSITE": "hls.hopeseattle.org", "GRADE": "P-8", "CITY": "Seattle", "ZIP": "98116" }, "geometry": { "type": "Point", "coordinates": [ -122.385087863144946, 47.563418965446949 ] } },
{ "type": "Feature", "properties": { "OBJECTID": 24, "NAME": "International Montessori Academy", "ADDRESS": "1715 E Olive Way", "PHONE": "425-454-5600", "WEBSITE": "intlmontessoriacademy.com", "GRADE": "P-5", "CITY": "Seattle", "ZIP": "98102" }, "geometry": { "type": "Point", "coordinates": [ -122.322821658716194, 47.61950945508994 ] } },
{ "type": "Feature", "properties": { "OBJECTID": 25, "NAME": "KapKa Cooperative School", "ADDRESS": "510 N 49th ST", "PHONE": "206-522-0350", "WEBSITE": "www.kapkaschool.org", "GRADE": "K-5", "CITY": "Seattle", "ZIP": "98103" }, "geometry": { "type": "Point", "coordinates": [ -122.352479082920368, 47.664760376474142 ] } },
{ "type": "Feature", "properties": { "OBJECTID": 26, "NAME": "King's Schools", "ADDRESS": "19303 Fremont Ave N", "PHONE": "206-546-7211", "WEBSITE": "www.kingsschools.org", "GRADE": "P-12", "CITY": "Seattle", "ZIP": "98133" }, "geometry": { "type": "Point", "coordinates": [ -122.352050162006066, 47.769518878193018 ] } },
{ "type": "Feature", "properties": { "OBJECTID": 27, "NAME": "Lake Washington Girls Middle School", "ADDRESS": "810 18th Ave", "PHONE": "206-709-3800", "WEBSITE": "www.lwgms.org", "GRADE": "6-8", "CITY": "Seattle", "ZIP": "98122" }, "geometry": { "type": "Point", "coordinates": [ -122.30849893333712, 47.609618512152373 ] } },
{ "type": "Feature", "properties": { "OBJECTID": 28, "NAME": "Lakeside School", "ADDRESS": "14050 1st Avenue NE", "PHONE": "206-368-3600", "WEBSITE": "www.lakesideschool.org", "GRADE": "5-12", "CITY": "Seattle", "ZIP": "98125" }, "geometry": { "type": "Point", "coordinates": [ -122.327843276946794, 47.731430629524638 ] } },
{ "type": "Feature", "properties": { "OBJECTID": 29, "NAME": "Lakeside School", "ADDRESS": "13510 1st Avenue NE", "PHONE": "206-368-3600", "WEBSITE": "www.lakesideschool.org", "GRADE": "5-12", "CITY": "Seattle", "ZIP": "98125" }, "geometry": { "type": "Point", "coordinates": [ -122.328349547921434, 47.727259281638617 ] } },
{ "type": "Feature", "properties": { "OBJECTID": 30, "NAME": "Laurel Academy", "ADDRESS": "12700 35th Ave NE", "PHONE": "206 522-5992", "WEBSITE": "www.laurelacademy.org", "GRADE": "K-5", "CITY": "Seattle", "ZIP": "98199" }, "geometry": { "type": "Point", "coordinates": [ -122.290197015570683, 47.721124674076883 ] } },
{ "type": "Feature", "properties": { "OBJECTID": 31, "NAME": "Leadership Preparatory Academy", "ADDRESS": "6532 Phinney Ave N", "PHONE": "425-298-6451", "WEBSITE": "www.LEAD-Prep.org", "GRADE": "6-12", "CITY": "Seattle", "ZIP": "98103" }, "geometry": { "type": "Point", "coordinates": [ -122.353982997716486, 47.677132076415383 ] } },
{ "type": "Feature", "properties": { "OBJECTID": 32, "NAME": "Matheia School", "ADDRESS": "2205 NW 67th St.", "PHONE": "(206) 283-1828", "WEBSITE": "matheia.org", "GRADE": "K-5", "CITY": "Seattle", "ZIP": "98117" }, "geometry": { "type": "Point", "coordinates": [ -122.384742996147253, 47.677456441456791 ] } },
{ "type": "Feature", "properties": { "OBJECTID": 33, "NAME": "MMSC Day School", "ADDRESS": "8420 Dayton Ave. N", "PHONE": "206-523-9766", "WEBSITE": "mmscdayschool.org", "GRADE": "K-12", "CITY": "Seattle", "ZIP": "98103" }, "geometry": { "type": "Point", "coordinates": [ -122.352284723416574, 47.690482739464706 ] } },
{ "type": "Feature", "properties": { "OBJECTID": 34, "NAME": "Morningside Academy", "ADDRESS": "901 Lenora St", "PHONE": "2067099500", "WEBSITE": "www.morningsideacademy.org", "GRADE": "1-9", "CITY": "Seattle", "ZIP": "98121" }, "geometry": { "type": "Point", "coordinates": [ -122.336544495922155, 47.617177033627136 ] } },
{ "type": "Feature", "properties": { "OBJECTID": 35, "NAME": "Northwest Montessori School", "ADDRESS": "4910 Phinney Ave North", "PHONE": "206-524-4244", "WEBSITE": "www.northwestmontessori.org", "GRADE": "P-6", "CITY": "Seattle", "ZIP": "98103" }, "geometry": { "type": "Point", "coordinates": [ -122.353569198781926, 47.664806671492684 ] } },
{ "type": "Feature", "properties": { "OBJECTID": 36, "NAME": "Northwest Montessori School", "ADDRESS": "7400 25th Ave NE", "PHONE": "206-524-4244", "WEBSITE": "www.northwestmontessori.org", "GRADE": "P-6", "CITY": "Seattle", "ZIP": "98115" }, "geometry": { "type": "Point", "coordinates": [ -122.3003161774852, 47.682239920939971 ] } },
{ "type": "Feature", "properties": { "OBJECTID": 37, "NAME": "Northwest Montessori School", "ADDRESS": "7344 35th Ave SW", "PHONE": "206-524-4244", "WEBSITE": "www.northwestmontessori.org", "GRADE": "P-6", "CITY": "Seattle", "ZIP": "98126" }, "geometry": { "type": "Point", "coordinates": [ -122.376218493974676, 47.536041186925097 ] } },
{ "type": "Feature", "properties": { "OBJECTID": 38, "NAME": "O'Dea High School", "ADDRESS": "802 Terry Avenue", "PHONE": "206-622-6596", "WEBSITE": "www.odea.org", "GRADE": "9-12", "CITY": "Seattle", "ZIP": "98104" }, "geometry": { "type": "Point", "coordinates": [ -122.324813397918092, 47.607756351825294 ] } },
{ "type": "Feature", "properties": { "OBJECTID": 39, "NAME": "Our Lady of Fatima School", "ADDRESS": "3301 West Dravus St.", "PHONE": "2062837031", "WEBSITE": "www.school.olfatima.org", "GRADE": "P-8", "CITY": "Seattle", "ZIP": "98199" }, "geometry": { "type": "Point", "coordinates": [ -122.399765742412285, 47.647246679419126 ] } },
{ "type": "Feature", "properties": { "OBJECTID": 40, "NAME": "Our Lady of Guadalupe Catholic School", "ADDRESS": "3401 SW Myrtle St.", "PHONE": "(206) 935-0651", "WEBSITE": "www.guadalupe-school.org", "GRADE": "P-8", "CITY": "Seattle", "ZIP": "98126" }, "geometry": { "type": "Point", "coordinates": [ -122.375636843048113, 47.538873056917474 ] } },
{ "type": "Feature", "properties": { "OBJECTID": 41, "NAME": "Our Lady of the Lake Catholic School", "ADDRESS": "3520 NE 89th Street", "PHONE": "2065259980", "WEBSITE": "www.ollseattle.org", "GRADE": "P-8", "CITY": "Seattle", "ZIP": "98115" }, "geometry": { "type": "Point", "coordinates": [ -122.289355218309424, 47.693535374067956 ] } },
{ "type": "Feature", "properties": { "OBJECTID": 42, "NAME": "Pacific Crest School", "ADDRESS": "600 N W Bright Street", "PHONE": "2067897889", "WEBSITE": "pacificcrest.org", "GRADE": "P-8", "CITY": "Seattle", "ZIP": "98107" }, "geometry": { "type": "Point", "coordinates": [ -122.364169219769252, 47.660231608001247 ] } },
{ "type": "Feature", "properties": { "OBJECTID": 43, "NAME": "Puget Sound Community School", "ADDRESS": "660 S Dearborn ST", "PHONE": "206.324.4350", "WEBSITE": "www.pscs.org", "GRADE": "6-12", "CITY": "Seattle", "ZIP": "98134" }, "geometry": { "type": "Point", "coordinates": [ -122.324268587972, 47.596288764191826 ] } },
{ "type": "Feature", "properties": { "OBJECTID": 44, "NAME": "Seattle Academy of Arts\/Sciences", "ADDRESS": "1201 E Union St", "PHONE": "(206) 323-6600", "WEBSITE": "www.seattleacademy.org", "GRADE": "6-12", "CITY": "Seattle", "ZIP": "98122" }, "geometry": { "type": "Point", "coordinates": [ -122.316298684590464, 47.612659376342229 ] } },
{ "type": "Feature", "properties": { "OBJECTID": 45, "NAME": "Seattle Amistad School", "ADDRESS": "1625 19th Ave", "PHONE": "206-325-3172", "WEBSITE": "seattleamistadschool.org", "GRADE": "P-5", "CITY": "Seattle", "ZIP": "98122" }, "geometry": { "type": "Point", "coordinates": [ -122.30769518494192, 47.615980813851202 ] } },
{ "type": "Feature", "properties": { "OBJECTID": 46, "NAME": "Seattle Amistad School", "ADDRESS": "9218 Greenwood Ave. N.", "PHONE": "206-325-3172", "WEBSITE": "seattleamistadschool.org", "GRADE": "P-5", "CITY": "Seattle", "ZIP": "98103" }, "geometry": { "type": "Point", "coordinates": [ -122.354914287974609, 47.696801741907315 ] } },
{ "type": "Feature", "properties": { "OBJECTID": 47, "NAME": "Seattle Classical Christian School", "ADDRESS": "172 20th Ave", "PHONE": "2062695831", "WEBSITE": "Null", "GRADE": "K-7", "CITY": "Seattle", "ZIP": "98122" }, "geometry": { "type": "Point", "coordinates": [ -122.305956234620226, 47.60320134527408 ] } },
{ "type": "Feature", "properties": { "OBJECTID": 48, "NAME": "Seattle Country Day School", "ADDRESS": "2619 4th Ave N", "PHONE": "206-284-6220", "WEBSITE": "www.seattlecountryday.org", "GRADE": "K-8", "CITY": "Seattle", "ZIP": "98109" }, "geometry": { "type": "Point", "coordinates": [ -122.350899616216878, 47.643440686491232 ] } },
{ "type": "Feature", "properties": { "OBJECTID": 49, "NAME": "Seattle Girls' School", "ADDRESS": "2706 S Jackson Street", "PHONE": "206.709.2228", "WEBSITE": "www.seattlegirlsschool.org", "GRADE": "5-8", "CITY": "Seattle", "ZIP": "98144" }, "geometry": { "type": "Point", "coordinates": [ -122.296912140201144, 47.599492017954042 ] } },
{ "type": "Feature", "properties": { "OBJECTID": 50, "NAME": "Seattle Hebrew Academy", "ADDRESS": "1617 Interlaken Drive East", "PHONE": "2063235750", "WEBSITE": "seattlehebrewacademy.org", "GRADE": "P-8", "CITY": "Seattle", "ZIP": "98112" }, "geometry": { "type": "Point", "coordinates": [ -122.307926384815943, 47.634422425811472 ] } },
{ "type": "Feature", "properties": { "OBJECTID": 51, "NAME": "Seattle Jewish Community School", "ADDRESS": "7217 Woodlawn Ave. NE", "PHONE": "2065225212", "WEBSITE": "www.sjcs.net", "GRADE": "K-5", "CITY": "Seattle", "ZIP": "98115" }, "geometry": { "type": "Point", "coordinates": [ -122.325123365475662, 47.680857528183083 ] } },
{ "type": "Feature", "properties": { "OBJECTID": 52, "NAME": "Seattle Lutheran High School", "ADDRESS": "4100 SW Genesee Street", "PHONE": "2069377722", "WEBSITE": "www.seattlelutheran.org", "GRADE": "9-12", "CITY": "Seattle", "ZIP": "98116" }, "geometry": { "type": "Point", "coordinates": [ -122.384547326117826, 47.565037503176789 ] } },
{ "type": "Feature", "properties": { "OBJECTID": 53, "NAME": "Seattle Nativity School", "ADDRESS": "2800 S. Massachusetts St. ", "PHONE": "206-494-4708", "WEBSITE": "http:\/\/www.seattlenativity.org", "GRADE": "6-8", "CITY": "Seattle ", "ZIP": "98144" }, "geometry": { "type": "Point", "coordinates": [ -122.296475579244131, 47.588800021994807 ] } },
{ "type": "Feature", "properties": { "OBJECTID": 54, "NAME": "Seattle Preparatory School", "ADDRESS": "2400 11th Ave East", "PHONE": "2063240400", "WEBSITE": "www.seaprep.org", "GRADE": "9-12", "CITY": "Seattle", "ZIP": "98102" }, "geometry": { "type": "Point", "coordinates": [ -122.316436913764989, 47.641321615700917 ] } },
{ "type": "Feature", "properties": { "OBJECTID": 55, "NAME": "Seattle Urban Academy", "ADDRESS": "10056 Renton Ave S", "PHONE": "206-723-0333", "WEBSITE": "www.sua.org", "GRADE": "9-12", "CITY": "Seatte", "ZIP": "98178" }, "geometry": { "type": "Point", "coordinates": [ -122.259756562487325, 47.510870889107487 ] } },
{ "type": "Feature", "properties": { "OBJECTID": 56, "NAME": "Seattle Waldorf School", "ADDRESS": "2728 NE 100th St", "PHONE": "2065245320", "WEBSITE": "www.seattlewaldorf.org", "GRADE": "P-12", "CITY": "Seattle", "ZIP": "98125" }, "geometry": { "type": "Point", "coordinates": [ -122.297329533916155, 47.701580758355476 ] } },
{ "type": "Feature", "properties": { "OBJECTID": 57, "NAME": "Seattle Waldorf School", "ADDRESS": "7777 62nd Ave NE", "PHONE": "2065245320", "WEBSITE": "www.seattlewaldorf.org", "GRADE": "P-12", "CITY": "Seattle", "ZIP": "98115" }, "geometry": { "type": "Point", "coordinates": [ -122.264857911554799, 47.687408100863955 ] } },
{ "type": "Feature", "properties": { "OBJECTID": 58, "NAME": "Seattle Waldorf School", "ADDRESS": "4919 Woodlawn Ave N", "PHONE": "2065245320", "WEBSITE": "www.seattlewaldorf.org", "GRADE": "P-12", "CITY": "Seattle", "ZIP": "98103" }, "geometry": { "type": "Point", "coordinates": [ -122.339783229449594, 47.664821197784619 ] } },
{ "type": "Feature", "properties": { "OBJECTID": 59, "NAME": "Soundview Education", "ADDRESS": "9205 3rd Ave. SW", "PHONE": "2062141011", "WEBSITE": "glen.lutz@sterling.education", "GRADE": "3-12", "CITY": "Seattle", "ZIP": "98106" }, "geometry": { "type": "Point", "coordinates": [ -122.339114118968581, 47.520655718242004 ] } },
{ "type": "Feature", "properties": { "OBJECTID": 60, "NAME": "Spring Academy", "ADDRESS": "9725 3rd Ave NE, Suite 125", "PHONE": "206.363.3600", "WEBSITE": "https:\/\/springacademy.com\/", "GRADE": "6-12", "CITY": "Seattle", "ZIP": "98115" }, "geometry": { "type": "Point", "coordinates": [ -122.326626116314372, 47.699993599569744 ] } },
{ "type": "Feature", "properties": { "OBJECTID": 61, "NAME": "Spruce Street School", "ADDRESS": "914 Virginia Street", "PHONE": "206-621-9211", "WEBSITE": "www.sprucestreetschool.org", "GRADE": "K-5", "CITY": "Seattle", "ZIP": "98101" }, "geometry": { "type": "Point", "coordinates": [ -122.335332405147312, 47.616873192722224 ] } },
{ "type": "Feature", "properties": { "OBJECTID": 62, "NAME": "St. Alphonsus School", "ADDRESS": "5816 15th Ave NW", "PHONE": "206-782-4363", "WEBSITE": "www.stalseattle.org", "GRADE": "P-8", "CITY": "Seattle", "ZIP": "98107" }, "geometry": { "type": "Point", "coordinates": [ -122.375683930599862, 47.671198607403269 ] } },
{ "type": "Feature", "properties": { "OBJECTID": 63, "NAME": "St. Anne School", "ADDRESS": "101 W Lee St.", "PHONE": "206-282-3538", "WEBSITE": "www.stannesea.org", "GRADE": "P-8", "CITY": "Seattle", "ZIP": "98119" }, "geometry": { "type": "Point", "coordinates": [ -122.358137693499572, 47.63110511072518 ] } },
{ "type": "Feature", "properties": { "OBJECTID": 64, "NAME": "St. Benedict Catholic School", "ADDRESS": "4811 Wallingford Ave N", "PHONE": "206-633-3375", "WEBSITE": "https:\/\/www.stbens.net\/school\/", "GRADE": "P-8", "CITY": "Seattle", "ZIP": "98103" }, "geometry": { "type": "Point", "coordinates": [ -122.336766264208563, 47.663800941072971 ] } },
{ "type": "Feature", "properties": { "OBJECTID": 65, "NAME": "St. Catherine School", "ADDRESS": "8524 8th Avenue NE", "PHONE": "2065250581", "WEBSITE": "stcatherineschool.net", "GRADE": "P-8", "CITY": "Seattle", "ZIP": "98115" }, "geometry": { "type": "Point", "coordinates": [ -122.320114339487432, 47.691120591724392 ] } },
{ "type": "Feature", "properties": { "OBJECTID": 66, "NAME": "St. Edward School", "ADDRESS": "4200 S. Mead Street", "PHONE": "206-725-1774", "WEBSITE": "www.saintedwardseattle.org", "GRADE": "P-8", "CITY": "Seattle", "ZIP": "98118" }, "geometry": { "type": "Point", "coordinates": [ -122.279913647934521, 47.550633100025649 ] } },
{ "type": "Feature", "properties": { "OBJECTID": 67, "NAME": "St. George Parish School", "ADDRESS": "5117 13th Ave South", "PHONE": "2062762581", "WEBSITE": "http:\/\/www.saintgeorgeseattle.org\/", "GRADE": "P-8", "CITY": "Seattle", "ZIP": "98108" }, "geometry": { "type": "Point", "coordinates": [ -122.316411413281102, 47.55586612276398 ] } },
{ "type": "Feature", "properties": { "OBJECTID": 68, "NAME": "St. John School", "ADDRESS": "120 North 79th Street", "PHONE": "206-783-0337", "WEBSITE": "www.st-johnschool.org", "GRADE": "P-8", "CITY": "Seattle", "ZIP": "98103" }, "geometry": { "type": "Point", "coordinates": [ -122.357634555720509, 47.686394139017374 ] } },
{ "type": "Feature", "properties": { "OBJECTID": 69, "NAME": "St. Joseph School Seattle", "ADDRESS": "700 18th Ave. East", "PHONE": "2063293260", "WEBSITE": "www.stjosephsea.org", "GRADE": "K-8", "CITY": "Seattle", "ZIP": "98112" }, "geometry": { "type": "Point", "coordinates": [ -122.308276676491914, 47.625478179090997 ] } },
{ "type": "Feature", "properties": { "OBJECTID": 70, "NAME": "St. Paul School", "ADDRESS": "10001 57th Avenue S", "PHONE": "206-725-0780", "WEBSITE": "www.seattlestpaul.org", "GRADE": "P-8", "CITY": "Seattle", "ZIP": "98178" }, "geometry": { "type": "Point", "coordinates": [ -122.262765630484296, 47.510420256500133 ] } },
{ "type": "Feature", "properties": { "OBJECTID": 71, "NAME": "St. Therese Catholic Academy", "ADDRESS": "900 35th Ave.", "PHONE": "206-324-0460", "WEBSITE": "www.stcaseattle.org", "GRADE": "P-8", "CITY": "Seattle", "ZIP": "98122" }, "geometry": { "type": "Point", "coordinates": [ -122.28800275484933, 47.611184194605499 ] } },
{ "type": "Feature", "properties": { "OBJECTID": 72, "NAME": "Taproot School", "ADDRESS": "9131 California Ave SW", "PHONE": "206-849-7146", "WEBSITE": "www.taprootschool.org", "GRADE": "K-5", "CITY": "Seattle", "ZIP": "98136" }, "geometry": { "type": "Point", "coordinates": [ -122.387874101825616, 47.521904410791606 ] } },
{ "type": "Feature", "properties": { "OBJECTID": 73, "NAME": "The Bush School", "ADDRESS": "3400 E Harrison St", "PHONE": "206-322-7978", "WEBSITE": "www.bush.edu", "GRADE": "K-12", "CITY": "Seattle", "ZIP": "98112-4268" }, "geometry": { "type": "Point", "coordinates": [ -122.288792877344889, 47.622907283535518 ] } },
{ "type": "Feature", "properties": { "OBJECTID": 74, "NAME": "The Lake and Park School", "ADDRESS": "3201 Hunter Blvd S", "PHONE": "206-721-3480", "WEBSITE": "lakeandparkschool.org", "GRADE": "P-5", "CITY": "Seattle", "ZIP": "98144-7029" }, "geometry": { "type": "Point", "coordinates": [ -122.285361356208568, 47.574986528565198 ] } },
{ "type": "Feature", "properties": { "OBJECTID": 75, "NAME": "The Meridian School", "ADDRESS": "4649 Sunnyside Ave N Ste 242", "PHONE": "2066327154", "WEBSITE": "www.meridianschool.edu", "GRADE": "K-5", "CITY": "Seattle", "ZIP": "98103" }, "geometry": { "type": "Point", "coordinates": [ -122.331178474394207, 47.664101102632358 ] } },
{ "type": "Feature", "properties": { "OBJECTID": 76, "NAME": "The Northwest School", "ADDRESS": "1415 Summit Ave", "PHONE": "206-682-7309", "WEBSITE": "http:\/\/www.northwestschool.org", "GRADE": "6-12", "CITY": "Seattle", "ZIP": "98122" }, "geometry": { "type": "Point", "coordinates": [ -122.325942328256914, 47.613391068059961 ] } },
{ "type": "Feature", "properties": { "OBJECTID": 77, "NAME": "The Perkins School", "ADDRESS": "9005 Roosevelt Way NE", "PHONE": "206-526-8217", "WEBSITE": "http:\/\/www.theperkinsschool.org", "GRADE": "K-5", "CITY": "Seattle", "ZIP": "98115" }, "geometry": { "type": "Point", "coordinates": [ -122.31806523472136, 47.694219858540897 ] } },
{ "type": "Feature", "properties": { "OBJECTID": 78, "NAME": "The Polytech", "ADDRESS": "540 NE Northgate Way # D", "PHONE": "2065574646", "WEBSITE": "www.thepolytech.com", "GRADE": "9-12", "CITY": "Seattle", "ZIP": "98125" }, "geometry": { "type": "Point", "coordinates": [ -122.321565809683932, 47.70882008570068 ] } },
{ "type": "Feature", "properties": { "OBJECTID": 79, "NAME": "The Seattle Area German American School", "ADDRESS": "11010 Greenwood Ave N", "PHONE": "2064422023", "WEBSITE": "www.sagaschool.org", "GRADE": "P-5", "CITY": "Seattle", "ZIP": "98133" }, "geometry": { "type": "Point", "coordinates": [ -122.354975453212603, 47.709012559947844 ] } },
{ "type": "Feature", "properties": { "OBJECTID": 80, "NAME": "The Valley School", "ADDRESS": "318 30th Ave E", "PHONE": "206-328-4475", "WEBSITE": "www.thevalleyschool.org", "GRADE": "P-5", "CITY": "Seattle", "ZIP": "98112" }, "geometry": { "type": "Point", "coordinates": [ -122.292954398858015, 47.621896728460264 ] } },
{ "type": "Feature", "properties": { "OBJECTID": 81, "NAME": "Tilden School", "ADDRESS": "4105 California Ave SW", "PHONE": "206 938 4628", "WEBSITE": "www.tildenschool.org", "GRADE": "K-5", "CITY": "Seattle", "ZIP": "98116" }, "geometry": { "type": "Point", "coordinates": [ -122.387190252346144, 47.566148588717617 ] } },
{ "type": "Feature", "properties": { "OBJECTID": 82, "NAME": "Torah Academy of the Pacific Northwest", "ADDRESS": "5305 52nd Ave S", "PHONE": "2065310089", "WEBSITE": "www.torahacademypn.org", "GRADE": "9-12", "CITY": "Seattle", "ZIP": "98118" }, "geometry": { "type": "Point", "coordinates": [ -122.268404267973509, 47.55386673085691 ] } },
{ "type": "Feature", "properties": { "OBJECTID": 83, "NAME": "Torah Day School of Seattle", "ADDRESS": "1625 South Columbian Way", "PHONE": "2067221200", "WEBSITE": "tdsseattle.org", "GRADE": "P-8", "CITY": "Seattle", "ZIP": "98108" }, "geometry": { "type": "Point", "coordinates": [ -122.312177206509759, 47.562244535088986 ] } },
{ "type": "Feature", "properties": { "OBJECTID": 84, "NAME": "University Child Development School", "ADDRESS": "5062 9th Ave NE", "PHONE": "206-547-8237", "WEBSITE": "www.ucds.org", "GRADE": "P-5", "CITY": "Seattle", "ZIP": "98105" }, "geometry": { "type": "Point", "coordinates": [ -122.318178015006666, 47.666648592764076 ] } },
{ "type": "Feature", "properties": { "OBJECTID": 85, "NAME": "University Cooperative School", "ADDRESS": "5601 University Way NE", "PHONE": "2065240653", "WEBSITE": "www.ucoopschool.org", "GRADE": "K-5", "CITY": "Seattle", "ZIP": "98105" }, "geometry": { "type": "Point", "coordinates": [ -122.31336034427008, 47.669654042097271 ] } },
{ "type": "Feature", "properties": { "OBJECTID": 86, "NAME": "University Prep", "ADDRESS": "8000 25th Ave NE", "PHONE": "206-525-2714", "WEBSITE": "www.universityprep.org", "GRADE": "6-11", "CITY": "Seattle", "ZIP": "98115" }, "geometry": { "type": "Point", "coordinates": [ -122.300132912171208, 47.686998835879919 ] } },
{ "type": "Feature", "properties": { "OBJECTID": 87, "NAME": "Villa Academy", "ADDRESS": "5001 NE 50th St", "PHONE": "206-524-8885", "WEBSITE": "WWW.THEVILLA.ORG", "GRADE": "P-8", "CITY": "Seattle", "ZIP": "98105" }, "geometry": { "type": "Point", "coordinates": [ -122.273409836800298, 47.663642321660596 ] } },
{ "type": "Feature", "properties": { "OBJECTID": 88, "NAME": "Washington Academy for Muslim Education", "ADDRESS": "3621 33rd Ave S  #133", "PHONE": "360 842-6263", "WEBSITE": "wametoday.com", "GRADE": "K-12", "CITY": "Seattle", "ZIP": "98144" }, "geometry": { "type": "Point", "coordinates": [ -122.291603561347529, 47.571075557137476 ] } },
{ "type": "Feature", "properties": { "OBJECTID": 89, "NAME": "Westside School", "ADDRESS": "10404 34th Ave. SW", "PHONE": "206-932-2511", "WEBSITE": "www.westsideschool.org", "GRADE": "P-8", "CITY": "Seattle", "ZIP": "98146" }, "geometry": { "type": "Point", "coordinates": [ -122.373951945486482, 47.509592617527424 ] } }
]
}
